{"type":"FeatureCollection","features":[{"type":"Feature","properties":{"City":"Greifswald(Nord Stream)","Mth_1":5076,"Mth_2":4701,"Mth_3":5027,"Mth_4":4864,"Mth_5":5026,"Mth_6":4868,"Mth_7":3048,"Mth_8":5023,"Mth_9":4816,"Mth_10":5045,"Mth_11":4864,"Mth_12":5019},"geometry":{"type":"Point","coordinates":[13.385554,54.084992]}},{"type":"Feature","properties":{"City":"Mallnow","Mth_1":2170,"Mth_2":1846,"Mth_3":1589,"Mth_4":1810,"Mth_5":1457,"Mth_6":2143,"Mth_7":1578,"Mth_8":2410,"Mth_9":2410,"Mth_10":2409,"Mth_11":2400,"Mth_12":2447},"geometry":{"type":"Point","coordinates":[14.652859,52.495184]}},{"type":"Feature","properties":{"City":"Mallnow","Mth_1":0,"Mth_2":0,"Mth_3":0,"Mth_4":0,"Mth_5":24,"Mth_6":0,"Mth_7":61,"Mth_8":0,"Mth_9":0,"Mth_10":0,"Mth_11":0,"Mth_12":0},"geometry":{"type":"Point","coordinates":[14.652859,52.495184]}},{"type":"Feature","properties":{"City":"Kamminke","Mth_1":0,"Mth_2":0,"Mth_3":0,"Mth_4":0,"Mth_5":1,"Mth_6":1,"Mth_7":1,"Mth_8":1,"Mth_9":1,"Mth_10":0,"Mth_11":0,"Mth_12":0},"geometry":{"type":"Point","coordinates":[14.2065,53.8702]}},{"type":"Feature","properties":{"City":"Lasow","Mth_1":1,"Mth_2":1,"Mth_3":90,"Mth_4":72,"Mth_5":127,"Mth_6":117,"Mth_7":119,"Mth_8":95,"Mth_9":10,"Mth_10":22,"Mth_11":11,"Mth_12":20},"geometry":{"type":"Point","coordinates":[15.0308,51.2286]}},{"type":"Feature","properties":{"City":"Olbernhau","Mth_1":0,"Mth_2":0,"Mth_3":0,"Mth_4":0,"Mth_5":0,"Mth_6":0,"Mth_7":0,"Mth_8":0,"Mth_9":0,"Mth_10":0,"Mth_11":0,"Mth_12":0},"geometry":{"type":"Point","coordinates":[13.3383,50.6589]}},{"type":"Feature","properties":{"City":"Hora Svate Kateriny ","Mth_1":0,"Mth_2":22,"Mth_3":17,"Mth_4":0,"Mth_5":0,"Mth_6":0,"Mth_7":0,"Mth_8":0,"Mth_9":1,"Mth_10":0,"Mth_11":2,"Mth_12":0},"geometry":{"type":"Point","coordinates":[13.4367,50.6063]}},{"type":"Feature","properties":{"City":"Waidhaus","Mth_1":2102,"Mth_2":1932,"Mth_3":1743,"Mth_4":1374,"Mth_5":1211,"Mth_6":1481,"Mth_7":1044,"Mth_8":1298,"Mth_9":2072,"Mth_10":2394,"Mth_11":2419,"Mth_12":2403},"geometry":{"type":"Point","coordinates":[12.495029,49.641939]}},{"type":"Feature","properties":{"City":"Operkappel","Mth_1":2,"Mth_2":0,"Mth_3":0,"Mth_4":0,"Mth_5":0,"Mth_6":0,"Mth_7":0,"Mth_8":0,"Mth_9":0,"Mth_10":116,"Mth_11":34,"Mth_12":72},"geometry":{"type":"Point","coordinates":[13.7716,48.5528]}},{"type":"Feature","properties":{"City":"Operkappel","Mth_1":471,"Mth_2":288,"Mth_3":572,"Mth_4":630,"Mth_5":579,"Mth_6":564,"Mth_7":571,"Mth_8":500,"Mth_9":443,"Mth_10":31,"Mth_11":5,"Mth_12":8},"geometry":{"type":"Point","coordinates":[13.7716,48.5528]}},{"type":"Feature","properties":{"City":"Burghausen (Uberackern II)","Mth_1":1,"Mth_2":11,"Mth_3":35,"Mth_4":49,"Mth_5":67,"Mth_6":2,"Mth_7":18,"Mth_8":0,"Mth_9":34,"Mth_10":64,"Mth_11":114,"Mth_12":54},"geometry":{"type":"Point","coordinates":[12.841521,48.180834]}},{"type":"Feature","properties":{"City":"Burghausen (Uberackern II)","Mth_1":34,"Mth_2":31,"Mth_3":125,"Mth_4":69,"Mth_5":51,"Mth_6":157,"Mth_7":239,"Mth_8":140,"Mth_9":117,"Mth_10":2,"Mth_11":7,"Mth_12":12},"geometry":{"type":"Point","coordinates":[12.841521,48.180834]}},{"type":"Feature","properties":{"City":"Kiefersfelden","Mth_1":58,"Mth_2":48,"Mth_3":41,"Mth_4":24,"Mth_5":21,"Mth_6":16,"Mth_7":17,"Mth_8":15,"Mth_9":20,"Mth_10":34,"Mth_11":41,"Mth_12":53},"geometry":{"type":"Point","coordinates":[12.190504,47.612734]}},{"type":"Feature","properties":{"City":"Tarvisio","Mth_1":1834,"Mth_2":1735,"Mth_3":2998,"Mth_4":2708,"Mth_5":2334,"Mth_6":2532,"Mth_7":2236,"Mth_8":2392,"Mth_9":2275,"Mth_10":2277,"Mth_11":1819,"Mth_12":2690},"geometry":{"type":"Point","coordinates":[13.598429,46.505239]}},{"type":"Feature","properties":{"City":"Tarvisio","Mth_1":5,"Mth_2":8,"Mth_3":8,"Mth_4":6,"Mth_5":7,"Mth_6":6,"Mth_7":11,"Mth_8":32,"Mth_9":16,"Mth_10":14,"Mth_11":5,"Mth_12":8},"geometry":{"type":"Point","coordinates":[13.598429,46.505239]}},{"type":"Feature","properties":{"City":"Gorizia","Mth_1":0,"Mth_2":0,"Mth_3":0,"Mth_4":0,"Mth_5":1,"Mth_6":0,"Mth_7":0,"Mth_8":0,"Mth_9":0,"Mth_10":1,"Mth_11":0,"Mth_12":0},"geometry":{"type":"Point","coordinates":[13.50076,45.873406]}},{"type":"Feature","properties":{"City":"Gorizia","Mth_1":0,"Mth_2":0,"Mth_3":0,"Mth_4":0,"Mth_5":0,"Mth_6":0,"Mth_7":0,"Mth_8":0,"Mth_9":0,"Mth_10":0,"Mth_11":0,"Mth_12":0},"geometry":{"type":"Point","coordinates":[13.50076,45.873406]}},{"type":"Feature","properties":{"City":"Griespass","Mth_1":1134,"Mth_2":947,"Mth_3":940,"Mth_4":1210,"Mth_5":1377,"Mth_6":970,"Mth_7":941,"Mth_8":552,"Mth_9":409,"Mth_10":36,"Mth_11":2,"Mth_12":80},"geometry":{"type":"Point","coordinates":[8.373976,46.453772]}},{"type":"Feature","properties":{"City":"Griespass","Mth_1":3,"Mth_2":2,"Mth_3":1,"Mth_4":2,"Mth_5":2,"Mth_6":5,"Mth_7":2,"Mth_8":5,"Mth_9":4,"Mth_10":27,"Mth_11":9,"Mth_12":9},"geometry":{"type":"Point","coordinates":[8.373976,46.453772]}},{"type":"Feature","properties":{"City":"Bizzarone","Mth_1":19,"Mth_2":14,"Mth_3":14,"Mth_4":8,"Mth_5":5,"Mth_6":4,"Mth_7":3,"Mth_8":3,"Mth_9":5,"Mth_10":10,"Mth_11":14,"Mth_12":19},"geometry":{"type":"Point","coordinates":[8.948803,45.834255]}},{"type":"Feature","properties":{"City":"Irun (Biriatou)","Mth_1":0,"Mth_2":0,"Mth_3":0,"Mth_4":0,"Mth_5":0,"Mth_6":0,"Mth_7":0,"Mth_8":0,"Mth_9":0,"Mth_10":0,"Mth_11":0,"Mth_12":0},"geometry":{"type":"Point","coordinates":[-1.793698,43.339081]}},{"type":"Feature","properties":{"City":"Irun (Biriatou)","Mth_1":93,"Mth_2":3,"Mth_3":14,"Mth_4":0,"Mth_5":0,"Mth_6":0,"Mth_7":0,"Mth_8":0,"Mth_9":0,"Mth_10":188,"Mth_11":15,"Mth_12":0},"geometry":{"type":"Point","coordinates":[-1.793698,43.339081]}},{"type":"Feature","properties":{"City":"Larrau","Mth_1":182,"Mth_2":270,"Mth_3":167,"Mth_4":188,"Mth_5":118,"Mth_6":220,"Mth_7":309,"Mth_8":362,"Mth_9":190,"Mth_10":32,"Mth_11":115,"Mth_12":376},"geometry":{"type":"Point","coordinates":[-0.951661,43.005832]}},{"type":"Feature","properties":{"City":"Larrau","Mth_1":4,"Mth_2":0,"Mth_3":0,"Mth_4":0,"Mth_5":0,"Mth_6":0,"Mth_7":0,"Mth_8":0,"Mth_9":0,"Mth_10":90,"Mth_11":19,"Mth_12":0},"geometry":{"type":"Point","coordinates":[-0.951661,43.005832]}},{"type":"Feature","properties":{"City":"Taisnieres","Mth_1":59,"Mth_2":234,"Mth_3":364,"Mth_4":538,"Mth_5":529,"Mth_6":391,"Mth_7":311,"Mth_8":71,"Mth_9":341,"Mth_10":441,"Mth_11":351,"Mth_12":308},"geometry":{"type":"Point","coordinates":[3.872416,50.364597]}},{"type":"Feature","properties":{"City":"Obergailbach","Mth_1":98,"Mth_2":186,"Mth_3":217,"Mth_4":207,"Mth_5":203,"Mth_6":333,"Mth_7":187,"Mth_8":373,"Mth_9":443,"Mth_10":512,"Mth_11":480,"Mth_12":621},"geometry":{"type":"Point","coordinates":[7.218883,49.118238]}},{"type":"Feature","properties":{"City":"Oltingue","Mth_1":0,"Mth_2":0,"Mth_3":0,"Mth_4":0,"Mth_5":0,"Mth_6":0,"Mth_7":0,"Mth_8":0,"Mth_9":0,"Mth_10":0,"Mth_11":0,"Mth_12":0},"geometry":{"type":"Point","coordinates":[7.392576,47.491924]}},{"type":"Feature","properties":{"City":"Oltingue","Mth_1":700,"Mth_2":646,"Mth_3":654,"Mth_4":672,"Mth_5":730,"Mth_6":562,"Mth_7":510,"Mth_8":333,"Mth_9":236,"Mth_10":9,"Mth_11":2,"Mth_12":43},"geometry":{"type":"Point","coordinates":[7.392576,47.491924]}},{"type":"Feature","properties":{"City":"Blategnies","Mth_1":435,"Mth_2":317,"Mth_3":449,"Mth_4":919,"Mth_5":997,"Mth_6":898,"Mth_7":741,"Mth_8":760,"Mth_9":94,"Mth_10":195,"Mth_11":265,"Mth_12":363},"geometry":{"type":"Point","coordinates":[3.9488,50.3619]}},{"type":"Feature","properties":{"City":"Jura","Mth_1":106,"Mth_2":87,"Mth_3":84,"Mth_4":50,"Mth_5":44,"Mth_6":36,"Mth_7":26,"Mth_8":20,"Mth_9":11,"Mth_10":48,"Mth_11":75,"Mth_12":64},"geometry":{"type":"Point","coordinates":[6.131497,46.191574]}},{"type":"Feature","properties":{"City":"Oude Statenzijl","Mth_1":1144,"Mth_2":1149,"Mth_3":918,"Mth_4":1080,"Mth_5":793,"Mth_6":948,"Mth_7":671,"Mth_8":525,"Mth_9":871,"Mth_10":1217,"Mth_11":1452,"Mth_12":1349},"geometry":{"type":"Point","coordinates":[7.205,53.2019]}},{"type":"Feature","properties":{"City":"Oude Statenzijl","Mth_1":235,"Mth_2":243,"Mth_3":234,"Mth_4":220,"Mth_5":273,"Mth_6":111,"Mth_7":182,"Mth_8":353,"Mth_9":203,"Mth_10":253,"Mth_11":233,"Mth_12":184},"geometry":{"type":"Point","coordinates":[7.205,53.2019]}},{"type":"Feature","properties":{"City":"Vlieghuis","Mth_1":"N/A","Mth_2":"N/A","Mth_3":"N/A","Mth_4":"N/A","Mth_5":"N/A","Mth_6":"N/A","Mth_7":"N/A","Mth_8":"N/A","Mth_9":"N/A","Mth_10":"N/A","Mth_11":"N/A","Mth_12":"N/A"},"geometry":{"type":"Point","coordinates":[6.8385,52.6605]}},{"type":"Feature","properties":{"City":"Winterswijk","Mth_1":731,"Mth_2":574,"Mth_3":601,"Mth_4":194,"Mth_5":513,"Mth_6":408,"Mth_7":395,"Mth_8":178,"Mth_9":428,"Mth_10":434,"Mth_11":436,"Mth_12":521},"geometry":{"type":"Point","coordinates":[6.716599,51.971864]}},{"type":"Feature","properties":{"City":"Zevenaar","Mth_1":852,"Mth_2":712,"Mth_3":755,"Mth_4":616,"Mth_5":170,"Mth_6":112,"Mth_7":118,"Mth_8":226,"Mth_9":129,"Mth_10":474,"Mth_11":632,"Mth_12":755},"geometry":{"type":"Point","coordinates":[6.06872,51.934033]}},{"type":"Feature","properties":{"City":"Tegelen","Mth_1":4,"Mth_2":4,"Mth_3":3,"Mth_4":0,"Mth_5":3,"Mth_6":1,"Mth_7":0,"Mth_8":0,"Mth_9":0,"Mth_10":0,"Mth_11":3,"Mth_12":4},"geometry":{"type":"Point","coordinates":[6.140978,51.341771]}},{"type":"Feature","properties":{"City":"Zelzate","Mth_1":446.98,"Mth_2":536.8,"Mth_3":710.52,"Mth_4":418.44,"Mth_5":781.77,"Mth_6":485.1,"Mth_7":352.35,"Mth_8":135.33,"Mth_9":569.478,"Mth_10":168.782,"Mth_11":174.78,"Mth_12":2.779},"geometry":{"type":"Point","coordinates":[3.812306,51.198034]}},{"type":"Feature","properties":{"City":"Zelzate","Mth_1":0,"Mth_2":0,"Mth_3":0,"Mth_4":4,"Mth_5":0,"Mth_6":1,"Mth_7":35,"Mth_8":250,"Mth_9":1,"Mth_10":57,"Mth_11":168,"Mth_12":311},"geometry":{"type":"Point","coordinates":[3.812306,51.198034]}},{"type":"Feature","properties":{"City":"Zandvliet","Mth_1":141,"Mth_2":158,"Mth_3":108,"Mth_4":0,"Mth_5":0,"Mth_6":0,"Mth_7":0,"Mth_8":0,"Mth_9":0,"Mth_10":0,"Mth_11":0,"Mth_12":0},"geometry":{"type":"Point","coordinates":[4.271811,51.359955]}},{"type":"Feature","properties":{"City":"Hilvarenbeek","Mth_1":707,"Mth_2":815,"Mth_3":912,"Mth_4":822,"Mth_5":759,"Mth_6":557,"Mth_7":467,"Mth_8":211,"Mth_9":530,"Mth_10":801,"Mth_11":797,"Mth_12":913},"geometry":{"type":"Point","coordinates":[5.042085,51.446385]}},{"type":"Feature","properties":{"City":"s Gravenvoeren","Mth_1":226,"Mth_2":241,"Mth_3":186,"Mth_4":0,"Mth_5":0,"Mth_6":0,"Mth_7":0,"Mth_8":0,"Mth_9":0,"Mth_10":0,"Mth_11":0,"Mth_12":0},"geometry":{"type":"Point","coordinates":[5.71369,51.037296]}},{"type":"Feature","properties":{"City":"Petange","Mth_1":12,"Mth_2":7,"Mth_3":3,"Mth_4":0,"Mth_5":0,"Mth_6":8,"Mth_7":34,"Mth_8":25,"Mth_9":4,"Mth_10":0,"Mth_11":5,"Mth_12":1},"geometry":{"type":"Point","coordinates":[5.851631,49.550583]}},{"type":"Feature","properties":{"City":"Remich ","Mth_1":2,"Mth_2":4,"Mth_3":7,"Mth_4":1,"Mth_5":2,"Mth_6":8,"Mth_7":0,"Mth_8":1,"Mth_9":8,"Mth_10":31,"Mth_11":36,"Mth_12":57},"geometry":{"type":"Point","coordinates":[6.362301,49.544328]}},{"type":"Feature","properties":{"City":"Alveringem","Mth_1":16,"Mth_2":58,"Mth_3":18,"Mth_4":0,"Mth_5":0,"Mth_6":0,"Mth_7":0,"Mth_8":0,"Mth_9":39,"Mth_10":6,"Mth_11":21,"Mth_12":0},"geometry":{"type":"Point","coordinates":[2.7097,51.0123]}},{"type":"Feature","properties":{"City":"Wallbach","Mth_1":781,"Mth_2":557,"Mth_3":533,"Mth_4":654,"Mth_5":743,"Mth_6":479,"Mth_7":482,"Mth_8":286,"Mth_9":304,"Mth_10":239,"Mth_11":282,"Mth_12":417},"geometry":{"type":"Point","coordinates":[7.899507,47.568867]}},{"type":"Feature","properties":{"City":"Tietierowka","Mth_1":12,"Mth_2":11,"Mth_3":10,"Mth_4":7,"Mth_5":5,"Mth_6":3,"Mth_7":3,"Mth_8":3,"Mth_9":3,"Mth_10":7,"Mth_11":9,"Mth_12":13},"geometry":{"type":"Point","coordinates":[18.5804,54.7353]}},{"type":"Feature","properties":{"City":"Kondratki","Mth_1":2710,"Mth_2":2679,"Mth_3":2892,"Mth_4":2760,"Mth_5":2510,"Mth_6":3100,"Mth_7":2529,"Mth_8":3387,"Mth_9":3251,"Mth_10":3360,"Mth_11":3321,"Mth_12":3420},"geometry":{"type":"Point","coordinates":[18.9592,52.7796]}},{"type":"Feature","properties":{"City":"Wysokoje","Mth_1":193,"Mth_2":193,"Mth_3":223,"Mth_4":205,"Mth_5":238,"Mth_6":131,"Mth_7":304,"Mth_8":271,"Mth_9":206,"Mth_10":299,"Mth_11":289,"Mth_12":298},"geometry":{"type":"Point","coordinates":[23.165,52.287]}},{"type":"Feature","properties":{"City":"Drozdowicze","Mth_1":215,"Mth_2":138,"Mth_3":183,"Mth_4":176,"Mth_5":163,"Mth_6":376,"Mth_7":249,"Mth_8":231,"Mth_9":150,"Mth_10":282,"Mth_11":306,"Mth_12":326},"geometry":{"type":"Point","coordinates":[22.5951,49.5387]}},{"type":"Feature","properties":{"City":"Hermanowice","Mth_1":14,"Mth_2":29,"Mth_3":30,"Mth_4":115,"Mth_5":126,"Mth_6":126,"Mth_7":0,"Mth_8":0,"Mth_9":0,"Mth_10":0,"Mth_11":0,"Mth_12":0},"geometry":{"type":"Point","coordinates":[22.8149,49.7231]}},{"type":"Feature","properties":{"City":"Gubin ","Mth_1":0,"Mth_2":1,"Mth_3":1,"Mth_4":0,"Mth_5":0,"Mth_6":0,"Mth_7":0,"Mth_8":0,"Mth_9":0,"Mth_10":0,"Mth_11":1,"Mth_12":1},"geometry":{"type":"Point","coordinates":[14.7285,51.949]}},{"type":"Feature","properties":{"City":"Finkenherd (EWE)","Mth_1":7,"Mth_2":6,"Mth_3":6,"Mth_4":4,"Mth_5":3,"Mth_6":2,"Mth_7":2,"Mth_8":2,"Mth_9":2,"Mth_10":4,"Mth_11":5,"Mth_12":7},"geometry":{"type":"Point","coordinates":[11.137,51.7872]}},{"type":"Feature","properties":{"City":"Moravia","Mth_1":11,"Mth_2":55,"Mth_3":77,"Mth_4":50,"Mth_5":12,"Mth_6":9,"Mth_7":9,"Mth_8":7,"Mth_9":1,"Mth_10":2,"Mth_11":32,"Mth_12":72},"geometry":{"type":"Point","coordinates":[16.7677,48.9545]}},{"type":"Feature","properties":{"City":"Baumgarten an der March","Mth_1":2067,"Mth_2":2521,"Mth_3":3509,"Mth_4":3278,"Mth_5":3223,"Mth_6":3196,"Mth_7":2639,"Mth_8":3039,"Mth_9":2917,"Mth_10":3597,"Mth_11":3175,"Mth_12":3718},"geometry":{"type":"Point","coordinates":[16.8697,48.3089]}},{"type":"Feature","properties":{"City":"Baumgarten an der March","Mth_1":3,"Mth_2":16,"Mth_3":107,"Mth_4":93,"Mth_5":200,"Mth_6":264,"Mth_7":386,"Mth_8":379,"Mth_9":239,"Mth_10":131,"Mth_11":42,"Mth_12":68},"geometry":{"type":"Point","coordinates":[16.8697,48.3089]}},{"type":"Feature","properties":{"City":"Lindau ","Mth_1":40,"Mth_2":31,"Mth_3":31,"Mth_4":18,"Mth_5":15,"Mth_6":12,"Mth_7":11,"Mth_8":10,"Mth_9":14,"Mth_10":25,"Mth_11":32,"Mth_12":38},"geometry":{"type":"Point","coordinates":[9.6929,47.5535]}},{"type":"Feature","properties":{"City":"Ruggel","Mth_1":9,"Mth_2":7,"Mth_3":7,"Mth_4":4,"Mth_5":3,"Mth_6":2,"Mth_7":2,"Mth_8":2,"Mth_9":3,"Mth_10":5,"Mth_11":7,"Mth_12":9},"geometry":{"type":"Point","coordinates":[9.5402,47.2529]}},{"type":"Feature","properties":{"City":"Brandov ","Mth_1":3264,"Mth_2":3141,"Mth_3":3313,"Mth_4":3122,"Mth_5":2759,"Mth_6":3310,"Mth_7":2359,"Mth_8":3476,"Mth_9":3291,"Mth_10":3007,"Mth_11":2935,"Mth_12":2895},"geometry":{"type":"Point","coordinates":[13.3907,50.632]}}]}